[
  {
    "name": "Аэропорт",
    "latitude": "55.79981",
    "longtitute": "37.53412"
  },
  {
    "name": "Академическая",
    "latitude": "55.68808",
    "longtitute": "37.57501"
  },
  {
    "name": "Алексеевская",
    "latitude": "55.80737",
    "longtitute": "37.63844"
  },
  {
    "name": "Александровский сад",
    "latitude": "55.75219",
    "longtitute": "37.60836"
  },
  {
    "name": "Алтуфьево",
    "latitude": "55.89504",
    "longtitute": "37.58605"
  },
  {
    "name": "Аннино (стр.)",
    "latitude": "55.581818",
    "longtitute": "37.594978"
  },
  {
    "name": "Арбатская",
    "latitude": "55.75228",
    "longtitute": "37.60357"
  },
  {
    "name": "Авиамоторная",
    "latitude": "55.75208",
    "longtitute": "37.71677"
  },
  {
    "name": "Автозаводская",
    "latitude": "55.70801",
    "longtitute": "37.65858"
  },
  {
    "name": "Бабушкинская",
    "latitude": "55.86814",
    "longtitute": "37.66292"
  },
  {
    "name": "Багратионовская",
    "latitude": "55.74326",
    "longtitute": "37.49753"
  },
  {
    "name": "Баррикадная",
    "latitude": "55.76027",
    "longtitute": "37.58111"
  },
  {
    "name": "Бауманская",
    "latitude": "55.77228",
    "longtitute": "37.67857"
  },
  {
    "name": "Беговая",
    "latitude": "55.77378",
    "longtitute": "37.54412"
  },
  {
    "name": "Белорусская",
    "latitude": "55.77492",
    "longtitute": "37.58207"
  },
  {
    "name": "Беляево",
    "latitude": "55.64371",
    "longtitute": "37.52762"
  },
  {
    "name": "Бибирево",
    "latitude": "55.88294",
    "longtitute": "37.60523"
  },
  {
    "name": "Библиотека им. Ленина",
    "latitude": "55.75211",
    "longtitute": "37.60988"
  },
  {
    "name": "Битцевский парк",
    "latitude": "55.60029",
    "longtitute": "37.55735"
  },
  {
    "name": "Боровицкая",
    "latitude": "55.75034",
    "longtitute": "37.60857"
  },
  {
    "name": "Ботанический сад",
    "latitude": "55.84649",
    "longtitute": "37.63914"
  },
  {
    "name": "Братеево (стр.)",
    "latitude": "55.631363",
    "longtitute": "37.75174"
  },
  {
    "name": "Братиславская",
    "latitude": "55.66126",
    "longtitute": "37.7509"
  },
  {
    "name": "Чеховская",
    "latitude": "55.76596",
    "longtitute": "37.6075"
  },
  {
    "name": "Черкизовская",
    "latitude": "55.802",
    "longtitute": "37.74438"
  },
  {
    "name": "Чертаново",
    "latitude": "55.63978",
    "longtitute": "37.60893"
  },
  {
    "name": "Чистые пруды",
    "latitude": "55.76426",
    "longtitute": "37.6389"
  },
  {
    "name": "Чкаловская",
    "latitude": "55.756218",
    "longtitute": "37.659375"
  },
  {
    "name": "Динамо",
    "latitude": "55.78867",
    "longtitute": "37.55936"
  },
  {
    "name": "Бульвар Дмитрия Донского (стр.)",
    "latitude": "55.567759",
    "longtitute": "37.575724"
  },
  {
    "name": "Дмитровская",
    "latitude": "55.80756",
    "longtitute": "37.57959"
  },
  {
    "name": "Добрынинская",
    "latitude": "55.72886",
    "longtitute": "37.62356"
  },
  {
    "name": "Домодедовская",
    "latitude": "55.61009",
    "longtitute": "37.71612"
  },
  {
    "name": "Достоевская (стр.)",
    "latitude": "55.782438",
    "longtitute": "37.612747"
  },
  {
    "name": "Дубровка",
    "latitude": "55.719732",
    "longtitute": "37.676915"
  },
  {
    "name": "Электрозаводская",
    "latitude": "55.78177",
    "longtitute": "37.70471"
  },
  {
    "name": "Шоссе энтузиастов",
    "latitude": "55.75837",
    "longtitute": "37.75155"
  },
  {
    "name": "Филевский парк",
    "latitude": "55.73953",
    "longtitute": "37.48366"
  },
  {
    "name": "Фили",
    "latitude": "55.74673",
    "longtitute": "37.51384"
  },
  {
    "name": "Фрунзенская",
    "latitude": "55.72718",
    "longtitute": "37.58036"
  },
  {
    "name": "Измайловская",
    "latitude": "55.78768",
    "longtitute": "37.78329"
  },
  {
    "name": "Улица Академика Янгеля (стр.)",
    "latitude": "55.596141",
    "longtitute": "37.59981"
  },
  {
    "name": "Каховская",
    "latitude": "55.65332",
    "longtitute": "37.59722"
  },
  {
    "name": "Калужская",
    "latitude": "55.65566",
    "longtitute": "37.53923"
  },
  {
    "name": "Кантемировская",
    "latitude": "55.6343",
    "longtitute": "37.65632"
  },
  {
    "name": "Каширская",
    "latitude": "55.65412",
    "longtitute": "37.64738"
  },
  {
    "name": "Киевская",
    "latitude": "55.74388",
    "longtitute": "37.56673"
  },
  {
    "name": "Китай город",
    "latitude": "55.75634",
    "longtitute": "37.63002"
  },
  {
    "name": "Китай город",
    "latitude": "55.753903",
    "longtitute": "37.635405"
  },
  {
    "name": "Коломенское",
    "latitude": "55.67745",
    "longtitute": "37.66298"
  },
  {
    "name": "Комсомольская",
    "latitude": "55.77717",
    "longtitute": "37.655689"
  },
  {
    "name": "Коньково",
    "latitude": "55.63253",
    "longtitute": "37.52005"
  },
  {
    "name": "Кожуховская",
    "latitude": "55.70533",
    "longtitute": "37.68508"
  },
  {
    "name": "Красногвардейская",
    "latitude": "55.614491",
    "longtitute": "37.744724"
  },
  {
    "name": "Краснопресненская",
    "latitude": "55.760109",
    "longtitute": "37.577141"
  },
  {
    "name": "Красносельская",
    "latitude": "55.780763",
    "longtitute": "37.666264"
  },
  {
    "name": "Красные ворота",
    "latitude": "55.76958",
    "longtitute": "37.6499"
  },
  {
    "name": "Крестьянская  застава",
    "latitude": "55.732877",
    "longtitute": "37.668998"
  },
  {
    "name": "Кропоткинская",
    "latitude": "55.74525",
    "longtitute": "37.60463"
  },
  {
    "name": "Крылатское",
    "latitude": "55.75879",
    "longtitute": "37.40633"
  },
  {
    "name": "Кунцевская",
    "latitude": "55.73045",
    "longtitute": "37.44646"
  },
  {
    "name": "Курская",
    "latitude": "55.75848",
    "longtitute": "37.65985"
  },
  {
    "name": "Кутузовская",
    "latitude": "55.73947",
    "longtitute": "37.53433"
  },
  {
    "name": "Кузьминки",
    "latitude": "55.70531",
    "longtitute": "37.76775"
  },
  {
    "name": "Кузнецкий мост",
    "latitude": "55.76118",
    "longtitute": "37.62386"
  },
  {
    "name": "Ленинский проспект",
    "latitude": "55.70818",
    "longtitute": "37.58742"
  },
  {
    "name": "Лубянка",
    "latitude": "55.75876",
    "longtitute": "37.62573"
  },
  {
    "name": "Люблино",
    "latitude": "55.67694",
    "longtitute": "37.76316"
  },
  {
    "name": "Марьина роща (стр.)",
    "latitude": "55.793602",
    "longtitute": "37.615762"
  },
  {
    "name": "Марьино",
    "latitude": "55.65193",
    "longtitute": "37.74771"
  },
  {
    "name": "Марксистская",
    "latitude": "55.7407",
    "longtitute": "37.65773"
  },
  {
    "name": "Маяковская",
    "latitude": "55.76909",
    "longtitute": "37.59635"
  },
  {
    "name": "Медведково",
    "latitude": "55.88594",
    "longtitute": "37.6612"
  },
  {
    "name": "Менделеевская",
    "latitude": "55.78251",
    "longtitute": "37.59792"
  },
  {
    "name": "Минская (стр.)",
    "latitude": "55.731548",
    "longtitute": "37.491016"
  },
  {
    "name": "Проспект мира",
    "latitude": "55.781196",
    "longtitute": "37.633529"
  },
  {
    "name": "Митино (стр.)",
    "latitude": "55.84589",
    "longtitute": "37.35909"
  },
  {
    "name": "Молодежная",
    "latitude": "55.74001",
    "longtitute": "37.41724"
  },
  {
    "name": "Нагатинская",
    "latitude": "55.68386",
    "longtitute": "37.62285"
  },
  {
    "name": "Нагорная",
    "latitude": "55.67283",
    "longtitute": "37.61019"
  },
  {
    "name": "Нахимовский проспект",
    "latitude": "55.66376",
    "longtitute": "37.60767"
  },
  {
    "name": "Новые черемушки",
    "latitude": "55.66892",
    "longtitute": "37.55417"
  },
  {
    "name": "Новогиреево",
    "latitude": "55.75111",
    "longtitute": "37.81564"
  },
  {
    "name": "Новокосино (стр.)",
    "latitude": "55.740539",
    "longtitute": "37.856347"
  },
  {
    "name": "Новокузнецкая",
    "latitude": "55.74212",
    "longtitute": "37.62901"
  },
  {
    "name": "Новослободская",
    "latitude": "55.77921",
    "longtitute": "37.6009"
  },
  {
    "name": "Охотный ряд",
    "latitude": "55.75703",
    "longtitute": "37.61614"
  },
  {
    "name": "Октябрьское поле",
    "latitude": "55.793615",
    "longtitute": "37.493496"
  },
  {
    "name": "Октябрьская",
    "latitude": "55.729",
    "longtitute": "37.61139"
  },
  {
    "name": "Орехово",
    "latitude": "55.61214",
    "longtitute": "37.69584"
  },
  {
    "name": "Отрадное",
    "latitude": "55.86417",
    "longtitute": "37.60488"
  },
  {
    "name": "Парк культуры",
    "latitude": "55.73512",
    "longtitute": "37.59328"
  },
  {
    "name": "Парк Победы (стр.)",
    "latitude": "55.736559",
    "longtitute": "37.512591"
  },
  {
    "name": "Партизанская",
    "latitude": "55.78962",
    "longtitute": "37.7479"
  },
  {
    "name": "Павелецкая",
    "latitude": "55.7313",
    "longtitute": "37.63612"
  },
  {
    "name": "Печатники",
    "latitude": "55.69252",
    "longtitute": "37.7295"
  },
  {
    "name": "Перово",
    "latitude": "55.75109",
    "longtitute": "37.78854"
  },
  {
    "name": "Первомайская",
    "latitude": "55.79342",
    "longtitute": "37.79979"
  },
  {
    "name": "Петровско-Разумовская",
    "latitude": "55.83712",
    "longtitute": "37.57349"
  },
  {
    "name": "Пионерская",
    "latitude": "55.73583",
    "longtitute": "37.46731"
  },
  {
    "name": "Планерная",
    "latitude": "55.85931",
    "longtitute": "37.43687"
  },
  {
    "name": "Площадь Ильича",
    "latitude": "55.745663",
    "longtitute": "37.681123"
  },
  {
    "name": "Улица Подбельского",
    "latitude": "55.81503",
    "longtitute": "37.73209"
  },
  {
    "name": "Улица Подбельского",
    "latitude": "55.81336",
    "longtitute": "37.73524"
  },
  {
    "name": "Полежаевская",
    "latitude": "55.77691",
    "longtitute": "37.51692"
  },
  {
    "name": "Полянка",
    "latitude": "55.73654",
    "longtitute": "37.61856"
  },
  {
    "name": "Пражская",
    "latitude": "55.61354",
    "longtitute": "37.60499"
  },
  {
    "name": "Преображенская площадь",
    "latitude": "55.79655",
    "longtitute": "37.71591"
  },
  {
    "name": "Профсоюзная",
    "latitude": "55.67822",
    "longtitute": "37.56381"
  },
  {
    "name": "Пролетарская",
    "latitude": "55.73171",
    "longtitute": "37.66726"
  },
  {
    "name": "Пронская (стр.)",
    "latitude": "55.698344",
    "longtitute": "37.850869"
  },
  {
    "name": "Пушкинская",
    "latitude": "55.76565",
    "longtitute": "37.60417"
  },
  {
    "name": "Речной вокзал",
    "latitude": "55.85378",
    "longtitute": "37.47679"
  },
  {
    "name": "Площадь Революции",
    "latitude": "55.75646",
    "longtitute": "37.62321"
  },
  {
    "name": "Рижская",
    "latitude": "55.79222",
    "longtitute": "37.63557"
  },
  {
    "name": "Римская",
    "latitude": "55.746487",
    "longtitute": "37.682631"
  },
  {
    "name": "Рязанский проспект",
    "latitude": "55.71753",
    "longtitute": "37.79425"
  },
  {
    "name": "Cавеловская",
    "latitude": "55.79421",
    "longtitute": "37.58666"
  },
  {
    "name": "Щелковская",
    "latitude": "55.80955",
    "longtitute": "37.79884"
  },
  {
    "name": "Щукинская",
    "latitude": "55.80796",
    "longtitute": "37.46629"
  },
  {
    "name": "Cеменовская",
    "latitude": "55.78279",
    "longtitute": "37.71844"
  },
  {
    "name": "Cерпуховская",
    "latitude": "55.72658",
    "longtitute": "37.62462"
  },
  {
    "name": "Cевастопольская",
    "latitude": "55.65121",
    "longtitute": "37.59939"
  },
  {
    "name": "Шаболовская",
    "latitude": "55.71886",
    "longtitute": "37.60797"
  },
  {
    "name": "Cходненская",
    "latitude": "55.84937",
    "longtitute": "37.43951"
  },
  {
    "name": "Cлавянский бульвар (стр.)",
    "latitude": "55.729508",
    "longtitute": "37.468829"
  },
  {
    "name": "Cмоленская",
    "latitude": "55.74823",
    "longtitute": "37.58384"
  },
  {
    "name": "Cокол",
    "latitude": "55.80518",
    "longtitute": "37.51495"
  },
  {
    "name": "Cокольники",
    "latitude": "55.78893",
    "longtitute": "37.67943"
  },
  {
    "name": "Cпортивная",
    "latitude": "55.72397",
    "longtitute": "37.56547"
  },
  {
    "name": "Cретенский бульвар (стр.)",
    "latitude": "55.765551",
    "longtitute": "37.635261"
  },
  {
    "name": "Cтрогино (стр.)",
    "latitude": "55.80435",
    "longtitute": "37.396363"
  },
  {
    "name": "Cтуденческая",
    "latitude": "55.73873",
    "longtitute": "37.54825"
  },
  {
    "name": "Cухаревская",
    "latitude": "55.77211",
    "longtitute": "37.63239"
  },
  {
    "name": "Площадь Cуворова (стр.)",
    "latitude": "55.781984",
    "longtitute": "37.614487"
  },
  {
    "name": "Cвиблово",
    "latitude": "55.85543",
    "longtitute": "37.65419"
  },
  {
    "name": "Таганская",
    "latitude": "55.74255",
    "longtitute": "37.65389"
  },
  {
    "name": "Театральная",
    "latitude": "55.75857",
    "longtitute": "37.6177"
  },
  {
    "name": "Текстильшики",
    "latitude": "55.70947",
    "longtitute": "37.73282"
  },
  {
    "name": "Теплый стан",
    "latitude": "55.61814",
    "longtitute": "37.50814"
  },
  {
    "name": "Тимирязевская",
    "latitude": "55.81842",
    "longtitute": "37.57571"
  },
  {
    "name": "Третьяковская",
    "latitude": "55.74061",
    "longtitute": "37.62492"
  },
  {
    "name": "Трубная (стр.)",
    "latitude": "55.767605",
    "longtitute": "37.6221"
  },
  {
    "name": "Царицино",
    "latitude": "55.62011",
    "longtitute": "37.66939"
  },
  {
    "name": "Цветной бульвар",
    "latitude": "55.7716",
    "longtitute": "37.62058"
  },
  {
    "name": "Тульская",
    "latitude": "55.70901",
    "longtitute": "37.6226"
  },
  {
    "name": "Тургеневская",
    "latitude": "55.7646",
    "longtitute": "37.63623"
  },
  {
    "name": "Тушинская",
    "latitude": "55.8258",
    "longtitute": "37.43621"
  },
  {
    "name": "Тверская",
    "latitude": "55.7652",
    "longtitute": "37.60352"
  },
  {
    "name": "Улица 1905 года",
    "latitude": "55.76355",
    "longtitute": "37.56375"
  },
  {
    "name": "Университет",
    "latitude": "55.69167",
    "longtitute": "37.53433"
  },
  {
    "name": "Варшавская",
    "latitude": "55.65381",
    "longtitute": "37.62084"
  },
  {
    "name": "ВДНХ",
    "latitude": "55.82177",
    "longtitute": "37.64107"
  },
  {
    "name": "Проспект Вернадского",
    "latitude": "55.67613",
    "longtitute": "37.5045"
  },
  {
    "name": "Владыкино",
    "latitude": "55.84669",
    "longtitute": "37.59251"
  },
  {
    "name": "Водный стадион",
    "latitude": "55.8386",
    "longtitute": "37.48749"
  },
  {
    "name": "Войковская",
    "latitude": "55.81811",
    "longtitute": "37.49905"
  },
  {
    "name": "Волоколамская (стр.)",
    "latitude": "55.83459",
    "longtitute": "37.38367"
  },
  {
    "name": "Волгоградский проспект",
    "latitude": "55.7243",
    "longtitute": "37.68795"
  },
  {
    "name": "Волжская",
    "latitude": "55.69101",
    "longtitute": "37.75498"
  },
  {
    "name": "Воробьёвы горы",
    "latitude": "55.710454",
    "longtitute": "37.558601"
  },
  {
    "name": "Выхино",
    "latitude": "55.715",
    "longtitute": "37.81802"
  },
  {
    "name": "Ясенево",
    "latitude": "55.60535",
    "longtitute": "37.53494"
  },
  {
    "name": "Юго-западная",
    "latitude": "55.66464",
    "longtitute": "37.48421"
  },
  {
    "name": "Южная",
    "latitude": "55.62122",
    "longtitute": "37.60752"
  }
]